City_ID,City,Lat,Lng,Max Temp,Humidity,Cloudiness,Wind Speed,Country,Date
0,khairpur,27.5295,68.7617,30.94,27,0,2.13,PK,1730433140
1,namibe,-15.1961,12.1522,16.87,84,96,1.81,AO,1730433142
2,port-aux-francais,-49.35,70.2167,4.09,84,100,11.52,TF,1730433143
3,edinburgh of the seven seas,-37.0676,-12.3116,13.91,87,62,9.39,SH,1730433144
4,sao gabriel da cachoeira,-0.1303,-67.0892,25.09,70,61,1.13,BR,1730433145
5,maceio,-9.6658,-35.7353,23.69,94,20,2.06,BR,1730433146
6,regina,50.4501,-104.6178,5.58,60,100,6.17,CA,1730432932
7,puerto baquerizo moreno,-0.9,-89.6,20.63,80,89,6.12,EC,1730433149
8,thompson,55.7435,-97.8558,-10.91,73,20,0.0,CA,1730433150
9,papao,-17.75,-149.55,25.82,77,43,7.53,PF,1730433152
10,arawa,-6.2132,155.5367,28.97,80,97,0.44,PG,1730433153
11,porto novo,6.4965,2.6036,25.9,92,24,1.69,BJ,1730433154
12,margaret river,-33.95,115.0667,18.97,70,100,4.26,AU,1730433155
13,puerto natales,-51.7236,-72.4875,8.89,89,100,0.98,CL,1730433156
14,port lincoln,-34.7333,135.8667,16.23,58,16,4.93,AU,1730433157
15,pleszew,51.8964,17.7855,9.01,88,34,6.9,PL,1730433158
16,degerfors,59.238,14.4308,13.77,70,100,9.43,SE,1730433160
17,talnakh,69.4865,88.3972,-8.32,94,100,5.2,RU,1730433161
18,benjamin aceval,-24.9667,-57.5667,24.0,95,100,3.19,PY,1730433162
19,waitangi,-43.9535,-176.5597,15.46,82,16,2.68,NZ,1730433163
20,adamstown,-25.066,-130.1015,20.7,85,100,12.42,PN,1730433164
21,geraldton,-28.7667,114.6,26.23,61,9,5.14,AU,1730433165
22,invercargill,-46.4,168.35,10.57,77,100,2.68,NZ,1730433166
23,bethel,41.3712,-73.414,21.3,73,98,0.89,US,1730433168
24,yellowknife,62.456,-114.3525,-4.71,100,100,7.2,CA,1730433169
25,nizhnevartovsk,60.9344,76.5531,-1.99,86,100,5.0,RU,1730433172
26,kodiak,57.79,-152.4072,3.73,81,75,3.6,US,1730432937
27,rouissat,31.9243,5.3502,19.04,72,84,1.54,DZ,1730433174
28,blackmans bay,-43.0167,147.3167,14.74,51,99,1.79,AU,1730433175
29,alta,69.9689,23.2717,-5.41,84,94,12.96,NO,1730433178
30,klaksvik,62.2266,-6.589,3.91,73,84,14.44,FO,1730433179
31,mahavelona,-17.6848,49.5087,23.84,85,100,0.65,MG,1730433180
32,lorengau,-2.0226,147.2712,29.45,67,96,0.46,PG,1730433181
33,ta`u,-14.2336,-169.5144,27.41,79,100,3.25,AS,1730433182
34,iqaluit,63.7506,-68.5145,-1.15,80,100,16.46,CA,1730433183
35,papatowai,-46.5619,169.4708,7.73,89,100,2.04,NZ,1730433185
36,north bend,43.4065,-124.2243,12.37,94,75,4.63,US,1730433186
37,khandyga,62.6667,135.6,-16.18,82,100,0.13,RU,1730433187
38,kachug,53.9606,105.8817,1.35,62,100,1.4,RU,1730433188
39,san juan de miraflores,-12.1629,-76.9635,17.87,83,100,3.07,PE,1730433189
40,roswell,34.0232,-84.3616,19.19,85,0,0.0,US,1730433190
41,essaouira,31.5125,-9.77,13.72,94,20,1.03,MA,1730433192
42,likasi,-10.9814,26.7333,17.8,94,100,2.21,CD,1730433193
43,tucuma,-0.1833,-50.05,25.69,79,82,3.96,BR,1730433194
44,iskateley,67.6803,53.1512,0.43,98,100,6.35,RU,1730433195
45,hermanus,-34.4187,19.2345,17.67,90,16,4.49,ZA,1730433196
46,mount isa,-20.7333,139.5,36.87,11,2,6.17,AU,1730433197
47,ribeira grande,38.5167,-28.7,21.54,95,100,7.6,PT,1730433199
48,albany,42.6001,-73.9662,21.23,66,73,1.34,US,1730433200
49,revda,56.801,59.9303,0.79,96,100,5.49,RU,1730433201
50,tura,25.5198,90.2201,26.78,67,26,0.77,IN,1730433202
51,garachico,28.7781,-17.7646,17.06,55,0,3.09,ES,1730433204
52,margate,51.3813,1.3862,10.94,90,0,3.71,GB,1730433205
53,susuman,62.7833,148.1667,-17.33,92,97,1.2,RU,1730433206
54,aasiaat,68.7098,-52.8699,-1.95,79,100,8.06,GL,1730433207
55,yuncheng,35.0231,110.9928,16.34,65,100,2.25,CN,1730433208
56,tazovsky,67.4667,78.7,-5.76,94,94,6.64,RU,1730433209
57,hamilton,39.1834,-84.5333,17.14,93,100,3.58,US,1730433211
58,avarua,-21.2078,-159.775,25.03,73,75,5.14,CK,1730433212
59,ushuaia,-54.8,-68.3,10.81,71,20,1.54,AR,1730433213
60,grytviken,-54.2811,-36.5092,-1.32,79,57,5.31,GS,1730433215
61,chhuikhadan,21.5333,80.9833,28.85,40,3,1.11,IN,1730433216
62,tazacorte,28.629,-17.9293,18.54,55,0,3.09,ES,1730433217
63,rakops,-21.0167,24.3333,20.27,69,37,5.45,BW,1730433219
64,olonkinbyen,70.9221,-8.7187,-4.22,61,100,11.68,SJ,1730433221
65,adrar,20.5022,-10.0711,27.95,21,100,2.6,MR,1730433222
66,stanley,54.868,-1.6985,10.01,87,75,8.23,GB,1730433223
67,menongue,-14.6585,17.691,17.27,33,98,0.92,AO,1730433224
68,nova sintra,14.8667,-24.7167,26.69,75,100,2.69,CV,1730433225
69,east london,-33.0153,27.9116,15.52,88,0,3.09,ZA,1730433226
70,queenstown,-31.8976,26.8753,13.44,64,24,0.43,ZA,1730433228
71,romilly-sur-seine,48.5108,3.7263,7.89,88,2,1.45,FR,1730433229
72,west island,-12.1568,96.8225,27.99,74,20,5.66,CC,1730433230
73,krasnogvardeyskoye,45.8456,41.5186,11.62,88,100,2.57,RU,1730433231
74,yuzhno-kurilsk,44.0306,145.8556,13.52,61,56,3.44,RU,1730433232
75,qaqortoq,60.7167,-46.0333,1.0,97,100,10.36,GL,1730433233
76,lebu,-37.6167,-73.65,12.23,87,100,3.33,CL,1730433235
77,mermoz boabab,14.7065,-17.4758,25.88,94,0,2.06,SN,1730433236
78,constantia,44.1833,28.65,12.61,68,98,2.92,RO,1730433237
79,kyzylorda,44.8528,65.5092,1.01,93,0,2.0,KZ,1730433238
80,jinjing,24.575,118.5972,22.33,87,100,2.24,CN,1730433239
81,grootfontein,-19.5667,18.1167,19.01,20,2,2.8,NA,1730433240
82,skikda,36.8762,6.9092,20.15,68,0,1.8,DZ,1730433241
83,san luis,-33.295,-66.3356,22.34,71,1,8.92,AR,1730433243
84,ust-nera,64.5667,143.2,-20.07,97,91,1.4,RU,1730433244
85,tiquipaya,-17.3382,-66.2189,19.4,54,75,2.06,BO,1730433245
86,puerto ayora,-0.7393,-90.3518,20.86,95,81,4.02,EC,1730433246
87,vernon,50.2581,-119.2691,5.52,86,79,2.06,CA,1730433247
88,diapaga,12.0708,1.7889,23.09,27,88,2.79,BF,1730433249
89,taltal,-25.4,-70.4833,15.22,89,6,1.54,CL,1730433250
90,hasaki,35.7333,140.8333,22.66,67,88,6.93,JP,1730433252
91,berlin,52.5244,13.4105,11.85,89,75,4.63,DE,1730432602
92,antalaha,-14.9003,50.2788,25.14,69,34,1.81,MG,1730433256
93,agat village,13.3886,144.6585,30.76,86,40,8.75,GU,1730433257
94,newman,37.3138,-121.0208,11.7,70,77,0.89,US,1730433258
95,monroeville,40.4212,-79.7881,21.67,66,100,4.52,US,1730433262
96,sandnessjoen,66.0217,12.6316,4.26,98,100,9.53,NO,1730433263
97,oak island,33.9166,-78.1611,22.23,86,0,1.54,US,1730433264
98,chemmumiahpet,15.8979,79.3213,27.62,70,2,2.01,IN,1730433265
99,kvissleby,62.2936,17.375,0.91,98,100,1.47,SE,1730433266
100,toguchin,55.2353,84.3858,-2.33,87,32,2.91,RU,1730433267
101,shingu,33.7333,135.9833,22.03,83,100,1.92,JP,1730433268
102,motueka,-41.1333,173.0167,18.94,69,61,2.81,NZ,1730433270
103,grand falls-windsor,48.9332,-55.6649,9.72,94,100,2.96,CA,1730433271
104,black river,18.0264,-77.8487,24.9,81,9,2.79,JM,1730433272
105,corfu,39.62,19.9197,16.22,100,20,0.0,GR,1730433273
106,redmond,47.674,-122.1215,9.08,93,100,0.45,US,1730433274
107,petropavlovsk-kamchatsky,53.0452,158.6483,2.33,32,40,8.0,RU,1730433275
108,isafjordur,66.0755,-23.124,-6.64,73,27,4.92,IS,1730433277
109,iida,35.5197,137.8207,18.91,82,98,2.46,JP,1730433278
110,wailua homesteads,22.0669,-159.378,26.44,81,40,8.75,US,1730433279
111,arkhangel'sk,64.5401,40.5433,-1.94,100,75,4.0,RU,1730433280
112,faya-largeau,17.9257,19.1043,19.67,26,4,8.85,TD,1730433281
113,longyearbyen,78.2186,15.6401,-11.09,79,0,3.6,SJ,1730433282
114,aljezur,37.3191,-8.8033,15.85,91,100,2.56,PT,1730433284
115,sinabang,2.4803,96.3801,29.04,70,100,1.12,ID,1730433285
116,murray,40.6669,-111.888,8.07,63,100,8.23,US,1730433286
117,shihezi,44.3,86.0333,7.69,63,53,2.06,CN,1730433287
118,teotitlan,18.1319,-97.0767,19.21,92,0,1.71,MX,1730433288
119,castillos,-34.1667,-53.8333,19.17,80,96,5.3,UY,1730433289
120,nema,57.5067,50.5011,-0.66,96,100,4.88,RU,1730433291
121,kpandae,8.4689,-0.0113,24.78,78,40,1.95,GH,1730433292
122,dudinka,69.4058,86.1778,-7.86,93,100,8.54,RU,1730433293
123,rongelap,11.1635,166.8941,28.41,77,78,4.67,MH,1730433294
124,bansud,12.865,121.4564,30.47,71,100,4.81,PH,1730433295
125,palmer,42.1584,-72.3287,19.75,68,75,4.63,US,1730433257
126,magadan,59.5667,150.8,-6.89,64,75,4.75,RU,1730433299
127,vila franca do campo,37.7167,-25.4333,21.23,99,87,5.46,PT,1730433300
128,bardai,11.65,7.2333,18.28,26,52,3.42,NG,1730433301
129,georgetown,5.4112,100.3354,30.97,70,20,2.68,MY,1730433302
130,badger,64.8,-147.5333,-6.68,72,100,2.57,US,1730433303
131,kupang,-10.1667,123.5833,34.32,52,40,1.54,ID,1730433305
132,madalena,41.2162,-8.3345,17.53,88,67,1.81,PT,1730433306
133,beloyarskiy,63.7119,66.6722,0.61,81,100,5.9,RU,1730433307
134,aykhal,66.0,111.5,-12.03,94,100,0.61,RU,1730433308
135,saipan,15.1355,145.701,31.39,74,75,9.26,MP,1730433309
136,uturoa,-16.7333,-151.4333,25.11,69,0,5.55,PF,1730433311
137,casper,42.8666,-106.3131,4.92,59,73,6.71,US,1730433148
138,bredasdorp,-34.5322,20.0403,14.76,98,24,1.7,ZA,1730433313
139,wainwright,52.839,-110.8572,1.95,72,100,3.2,CA,1730433314
140,holualoa,19.6228,-155.9522,22.68,96,41,2.38,US,1730433315
141,port mathurin,-19.6833,63.4167,23.33,81,18,8.12,MU,1730433317
142,raduzhny,62.0961,77.475,-1.97,86,38,5.29,RU,1730433318
143,eagle point,42.4726,-122.8028,10.49,85,100,2.06,US,1730433319
144,la'ie,21.6477,-157.9253,26.66,79,5,2.24,US,1730433320
145,atafu village,-8.5421,-172.5159,28.02,66,54,1.57,TK,1730433321
146,howard springs,-12.497,131.047,32.15,61,100,2.41,AU,1730433322
147,conceicao do araguaia,-8.2578,-49.2647,23.62,90,82,1.03,BR,1730433324
148,utrik,11.2278,169.8474,28.37,77,95,4.96,MH,1730433325
149,port pirie,-33.1833,138.0167,24.7,31,23,6.91,AU,1730433326
150,bilibino,68.0546,166.4372,-14.7,96,100,2.93,RU,1730433327
151,remire-montjoly,4.9167,-52.2667,26.02,89,0,1.03,GF,1730433328
152,san antonio de pale,-1.4014,5.6325,25.07,83,72,4.99,GQ,1730433330
153,st. john's,47.5649,-52.7093,10.64,96,100,2.57,CA,1730433073
154,forster,-32.1667,152.5167,22.99,72,44,4.63,AU,1730433332
155,colonia,50.9333,6.95,7.76,93,40,0.51,DE,1730433334
156,alghero,40.5589,8.3181,14.05,94,0,1.03,IT,1730433335
157,ak'ordat,15.5486,37.8867,27.18,44,76,1.25,ER,1730433337
158,kapuskasing,49.4169,-82.4331,-1.95,100,100,3.09,CA,1730433338
159,kalevala,65.2,31.1667,-3.15,82,70,2.73,RU,1730433339
160,ulladulla,-35.35,150.4667,16.14,70,99,4.16,AU,1730433340
161,ancud,-41.8697,-73.8203,10.92,90,84,8.12,CL,1730433341
162,nuku'alofa,-21.1333,-175.2,28.19,83,75,5.14,TO,1730433342
163,el granada,37.5027,-122.4694,13.39,85,82,3.8,US,1730433344
164,champerico,14.3,-91.9167,26.19,89,94,3.94,GT,1730433345
165,kerikeri,-35.2268,173.9474,20.72,45,0,3.55,NZ,1730433346
166,jalostotitlan,21.2,-102.4667,14.97,38,0,1.76,MX,1730433347
167,bontang,0.1333,117.5,29.86,66,100,3.02,ID,1730433348
168,port macquarie,-31.4333,152.9167,22.26,71,36,1.79,AU,1730433349
169,whitehorse,60.7161,-135.0538,-0.55,92,75,8.23,CA,1730433052
170,weno,7.4515,151.8468,28.97,89,100,5.14,FM,1730433353
171,jamestown,42.097,-79.2353,17.79,94,100,3.6,US,1730433354
172,alofi,-19.0595,-169.9187,28.94,70,75,5.66,NU,1730433355
173,minas de marcona,-15.2119,-75.1103,12.04,84,26,3.76,PE,1730433356
174,maracaibo,10.6317,-71.6406,24.95,91,100,3.26,VE,1730433357
175,mushie,-3.0167,16.9,21.07,96,99,0.91,CD,1730433359
176,hami,42.8,93.45,11.71,29,18,1.82,CN,1730433360
177,thung song,8.1645,99.6804,31.56,99,38,3.37,TH,1730433361
178,kayenta,36.7278,-110.2546,8.95,23,54,3.15,US,1730433277
179,pedra,-8.4969,-36.9408,18.08,93,53,2.16,BR,1730433363
180,ataq,14.5377,46.8319,19.84,50,6,3.66,YE,1730433364
181,enewetak,11.3474,162.3373,28.73,77,37,6.7,MH,1730433365
182,isiro,2.7739,27.616,18.77,100,100,0.89,CD,1730433367
183,klyuchi,52.2667,79.1667,3.35,86,92,2.66,RU,1730433369
184,portland,45.5234,-122.6762,10.9,95,100,5.36,US,1730433370
185,praia da vitoria,38.7333,-27.0667,20.14,100,75,8.1,PT,1730433371
186,udachny,66.4167,112.4,-11.76,93,100,0.72,RU,1730433372
187,flin flon,54.7682,-101.865,-4.55,43,22,2.02,CA,1730433373
188,tsiombe,-25.3,45.4833,23.54,76,54,3.09,MG,1730433374
189,hadibu,12.65,54.0333,25.93,70,0,3.5,YE,1730433376
190,hawaiian paradise park,19.5933,-154.9731,23.73,97,100,2.57,US,1730433377
191,hithadhoo,-0.6,73.0833,27.78,57,7,0.39,MV,1730433378
192,isangel,-19.55,169.2667,30.06,66,75,2.06,VU,1730433379
193,sitka,57.0531,-135.33,8.94,76,100,0.0,US,1730433380
194,kailua-kona,19.6406,-155.9956,24.75,96,27,3.24,US,1730433383
195,lukuledi,-10.5667,38.8,24.01,84,94,1.54,TZ,1730433384
196,anadyr,64.75,177.4833,-2.72,68,75,11.0,RU,1730433385
197,aranda de duero,41.6704,-3.6892,10.75,87,96,4.1,ES,1730433386
198,mora,11.0461,14.1401,20.54,29,98,1.9,CM,1730433387
199,broken hill,-31.95,141.4333,24.55,25,1,3.97,AU,1730433264
200,asosa,10.0667,34.5333,15.93,95,100,2.46,ET,1730433390
201,takoradi,4.8845,-1.7554,24.99,87,28,1.91,GH,1730433391
202,nobeoka,32.5833,131.6667,22.4,93,94,1.44,JP,1730433392
203,harstad,68.799,16.5293,-0.47,83,100,12.96,NO,1730433393
204,tarawa,1.419,172.984,31.05,66,20,3.6,KI,1730433394
205,kenai,60.5544,-151.2583,-0.48,99,100,0.0,US,1730433395
206,mahina,-17.5065,-149.489,25.87,69,20,5.14,PF,1730433396
207,gdov,58.7406,27.8122,6.27,98,100,2.75,RU,1730433398
208,port alfred,-33.5906,26.891,15.66,91,8,5.59,ZA,1730433399
209,punta arenas,-53.15,-70.9167,11.06,66,0,3.09,CL,1730433400
210,myanaung,18.2833,95.3167,29.1,74,6,2.06,MM,1730433401
211,rota,36.6224,-6.3586,17.34,94,0,4.63,ES,1730433402
212,cam ranh,11.9214,109.1591,27.98,78,40,4.12,VN,1730433404
213,igrim,63.1906,64.4162,0.83,78,100,6.63,RU,1730433405
214,happy valley-goose bay,53.3168,-60.3315,2.17,75,75,4.12,CA,1730433406
215,gornozavodsk,58.3758,58.3211,0.27,98,100,3.97,RU,1730433407
216,vilyuchinsk,52.9306,158.4028,3.15,56,28,4.08,RU,1730433408
217,lazaro cardenas,17.9583,-102.2,26.42,83,100,1.87,MX,1730433409
218,sabang,5.8933,95.3214,28.1,78,76,8.07,ID,1730433412
219,kuanda,56.3161,116.0806,-4.31,86,99,0.68,RU,1730433413
220,galle,6.0367,80.217,28.85,81,100,0.45,LK,1730433414
221,port hueneme,34.1478,-119.1951,16.1,86,100,2.57,US,1730433265
222,yinchuan,38.4681,106.2731,15.21,53,77,0.88,CN,1730433417
223,ilulissat,69.2167,-51.1,-0.99,51,75,9.77,GL,1730433418
224,dangriga,16.9692,-88.2321,25.88,82,100,2.77,BZ,1730433419
225,voznesenskoye,54.89,42.7569,0.24,82,90,4.76,RU,1730433420
226,vadso,70.0744,29.7487,-0.91,86,75,7.2,NO,1730433421
227,guilin,25.2819,110.2864,24.06,35,54,6.53,CN,1730433423
228,kirakira,-10.4544,161.9205,27.47,80,100,0.88,SB,1730433424
229,puerto deseado,-47.7503,-65.8938,12.74,72,6,10.62,AR,1730433427
230,tual,-5.6667,132.75,28.84,75,73,2.84,ID,1730433428
231,zabaykal'sk,49.6333,117.3167,3.16,41,5,6.26,RU,1730433430
232,road town,18.4167,-64.6167,24.72,81,100,7.61,VG,1730433432
233,fale old settlement,-9.3852,-171.2468,28.5,66,50,2.55,TK,1730433433
234,visby,57.6409,18.296,13.35,87,100,9.77,SE,1730433434
235,college,64.8569,-147.8028,-6.63,74,100,2.57,US,1730433257
236,angaur state,6.906,134.13,28.82,74,70,2.8,PW,1730433436
237,vilyuysk,63.7553,121.6247,-15.82,92,97,0.46,RU,1730433437
238,jayapura,-2.5333,140.7,33.66,69,40,2.32,ID,1730433438
239,stettler,52.3168,-112.7186,0.06,73,100,1.41,CA,1730433440
240,veraval,20.9,70.3667,30.0,44,0,3.91,IN,1730433441
241,verkhnevilyuysk,63.4453,120.3167,-13.52,89,99,0.29,RU,1730433442
242,misratah,32.3754,15.0925,21.6,68,21,2.99,LY,1730433443
243,egilsstadir,65.2653,-14.3948,-7.05,73,40,3.09,IS,1730433444
244,brisas de zicatela,15.8369,-97.0419,26.59,85,74,2.38,MX,1730433445
245,morioka,39.7036,141.1525,17.18,48,100,1.35,JP,1730433446
246,turan,16.0678,108.2208,29.99,51,20,3.09,VN,1730433448
247,archangelos,36.2149,28.1149,20.17,75,0,2.09,GR,1730433449
248,teknaf,20.8624,92.3058,29.05,67,8,2.13,BD,1730433450
249,afaahiti,-17.75,-149.2833,23.34,76,87,6.57,PF,1730433451
250,hirara,24.8,125.2833,30.15,79,75,12.86,JP,1730433452
251,lompoc,34.6391,-120.4579,11.94,80,0,8.05,US,1730433453
252,kingston,17.997,-76.7936,27.53,78,20,3.6,JM,1730433455
253,nadi,-17.8,177.4167,31.0,58,75,6.17,FJ,1730433456
254,la passe,45.5549,-0.8967,14.57,91,0,3.46,FR,1730433457
255,bandarbeyla,9.4942,50.8122,25.46,80,31,3.5,SO,1730433458
256,motygino,58.1831,94.7592,-2.43,67,17,1.74,RU,1730433459
257,vila velha,-20.3297,-40.2925,21.97,95,75,1.54,BR,1730433461
258,salekhard,66.53,66.6019,-0.74,94,100,7.6,RU,1730433462
259,xinyuan,37.3,99.0,4.8,27,77,8.35,CN,1730433463
260,pisco,-13.7,-76.2167,17.03,88,0,4.63,PE,1730433464
261,tralee,52.2704,-9.7026,11.75,78,100,1.3,IE,1730433466
262,zhangye,38.9342,100.4517,10.32,37,99,1.94,CN,1730433467
263,laurel,39.0993,-76.8483,22.75,68,0,6.17,US,1730433468
264,carnarvon,-24.8667,113.6333,25.98,61,0,6.66,AU,1730433469
265,manokwari,-0.8667,134.0833,28.98,67,22,2.98,ID,1730433472
266,kolonia town,6.964,158.206,32.0,70,75,2.57,FM,1730433473
267,edson,53.5835,-116.4356,-2.92,100,100,1.54,CA,1730433474
268,jinxiang,27.4327,120.6062,21.06,83,99,5.41,CN,1730433479
269,santa marta de ortigueira,43.6833,-7.85,15.97,71,82,2.06,ES,1730433480
270,tabou,4.423,-7.3528,24.27,91,31,0.39,CI,1730433481
271,olonets,60.9847,32.9698,-1.64,92,29,0.37,RU,1730433482
272,kone,-21.0595,164.8658,27.56,50,77,3.01,NC,1730433484
273,gadzhiyevo,69.2551,33.3362,-2.43,80,100,9.89,RU,1730433485
274,safidon,29.4167,76.6667,27.46,23,0,3.3,IN,1730433486
275,port elizabeth,-33.918,25.5701,16.29,97,0,3.09,ZA,1730433487
276,rikaze,29.25,88.8833,10.69,12,0,1.1,CN,1730433488
277,sidney,-33.8679,151.2073,22.97,60,40,6.17,AU,1730433464
278,nantucket,41.2835,-70.0995,16.19,94,0,9.3,US,1730433490
279,candolim,15.5181,73.7626,27.0,89,20,3.6,IN,1730433492
280,taulaga,-11.0553,-171.0883,28.43,70,80,3.39,AS,1730433493
281,caconda,-13.7333,15.0667,17.18,64,99,1.4,AO,1730433494
282,key west,24.5557,-81.7826,27.0,78,20,6.69,US,1730433495
283,tvoroyri,61.5556,-6.8111,5.44,61,91,13.66,FO,1730433497
284,mankachar,25.5333,89.8667,27.17,69,68,0.46,IN,1730433498
285,soio,-6.1349,12.3689,24.66,83,93,2.05,AO,1730433499
286,bikaner,28.0167,73.3,30.04,25,0,2.3,IN,1730433500
287,tiksi,71.6872,128.8694,-23.99,99,83,1.5,RU,1730433501
288,ambovombe,-25.1667,46.0833,22.95,85,55,3.68,MG,1730433503
289,nouadhibou,20.931,-17.0347,20.99,60,100,6.17,MR,1730433504
290,that phanom,16.9364,104.7104,29.75,61,98,2.2,TH,1730433505
291,lekki,6.3607,4.8333,23.83,96,86,0.75,NG,1730433506
292,balabanovo,55.1816,36.6606,4.01,75,100,4.92,RU,1730433507
293,bikenibeu village,1.3673,173.1241,30.98,66,20,3.6,KI,1730433509
294,evron,48.1564,-0.3997,9.9,79,0,2.03,FR,1730433510
295,kristiansund,63.1115,7.732,7.85,70,75,12.35,NO,1730433511
296,meadow lakes,61.6247,-149.6011,-0.4,90,100,0.0,US,1730433513
297,ginir,7.1333,40.7,14.79,93,100,0.57,ET,1730433514
298,kargasok,59.0556,80.8572,-0.99,78,100,3.08,RU,1730433516
299,buka,40.8108,69.1986,13.03,43,100,0.48,UZ,1730433517
300,tosontsengel,48.7567,98.2839,-4.09,60,81,1.32,MN,1730433518
301,cedeira,43.6797,-8.0209,14.4,73,92,2.17,ES,1730433519
302,hotan,37.0997,79.9269,13.36,26,20,2.75,CN,1730433520
303,voi,-3.3945,38.563,23.33,81,97,3.42,KE,1730433521
304,severo-yeniseyskiy,60.3725,93.0408,-9.51,94,92,1.07,RU,1730433523
305,tucumcari,35.1717,-103.725,8.91,34,0,0.0,US,1730433524
306,charleston,32.7766,-79.9309,20.57,92,0,0.0,US,1730433525
307,nar'yan-mar,67.6713,53.087,0.42,98,100,6.23,RU,1730433527
308,aral,40.5156,81.2636,12.8,34,39,2.05,CN,1730433528
309,sanctuary point,-35.1114,150.629,17.09,66,95,4.43,AU,1730433529
310,tolbazy,54.0241,55.8825,1.21,77,88,7.01,RU,1730433530
311,rabigh,22.7986,39.0349,29.01,63,90,0.63,SA,1730433536
312,wenling,28.3669,121.36,18.93,97,100,6.12,CN,1730433537
313,prince george,53.9166,-122.753,0.69,93,100,1.03,CA,1730433538
314,kaiama,9.6225,3.9481,21.12,44,23,1.4,NG,1730433539
315,warwick,41.7001,-71.4162,18.45,86,20,6.17,US,1730433541
316,alice springs,-23.7,133.8833,35.75,9,7,3.09,AU,1730433542
317,katsuura,35.1333,140.3,22.84,70,100,6.91,JP,1730433543
318,kavieng,-2.5744,150.7967,28.79,70,78,2.27,PG,1730433545
319,fort bragg,35.139,-79.006,20.91,83,0,3.09,US,1730433546
320,inebolu,41.9747,33.7608,12.14,67,74,2.41,TR,1730433547
321,saldanha,-33.0117,17.9442,14.03,87,33,4.72,ZA,1730433549
322,san patricio,28.017,-97.5169,25.83,80,0,2.91,US,1730433550
323,laojunmiao,39.8333,97.7333,6.93,46,93,1.26,CN,1730433551
324,camana,-16.6228,-72.7111,16.73,89,22,2.48,PE,1730433552
325,sidi khaled,34.387,4.9879,19.36,71,0,2.53,DZ,1730433553
326,ulan bator,47.9077,106.8832,-2.93,80,0,1.0,MN,1730433554
327,cidreira,-30.1811,-50.2056,20.55,85,62,12.96,BR,1730433557
328,okotoks,50.7289,-113.9828,-1.99,92,90,0.67,CA,1730433558
329,kamennomostskoye,43.7372,43.0514,7.31,49,100,1.98,RU,1730433559
330,qamdo,31.1667,97.2333,7.89,21,93,1.82,CN,1730433561
331,quellon,-43.1167,-73.6167,9.49,88,74,3.8,CL,1730433564
332,bamboo flat,11.7,92.7167,31.05,70,40,1.54,IN,1730433565
333,balapur,20.6667,76.7667,27.45,44,0,0.95,IN,1730433566
334,mount pearl,47.5166,-52.7813,10.18,98,100,2.57,CA,1730433567
335,tromso,69.6496,18.957,-0.99,74,0,3.09,NO,1730433568
336,doctor arroyo,23.6667,-100.1833,18.52,72,20,0.99,MX,1730433569
337,tallahassee,30.4383,-84.2807,19.86,91,20,2.57,US,1730433570
338,new norfolk,-42.7826,147.0587,15.95,34,98,5.15,AU,1730433572
339,tamiahua,21.2667,-97.45,25.06,93,0,2.5,MX,1730433573
340,fortaleza,-3.7227,-38.5247,26.79,83,75,4.63,BR,1730433574
341,bowen,-20.0167,148.2333,26.13,63,100,5.75,AU,1730433575
342,chaozhou,23.6651,116.6379,27.92,56,71,5.61,CN,1730433576
343,aleksandrovsk-sakhalinskiy,50.8975,142.1561,2.57,49,7,2.81,RU,1730433579
344,san jose,37.3394,-121.895,13.45,75,0,0.45,US,1730433387
345,dolores,-36.3132,-57.6792,18.34,93,99,5.36,AR,1730433581
346,devils lake,48.1128,-98.8651,1.08,73,0,2.57,US,1730433582
347,darwin,-12.4611,130.8418,32.19,66,75,3.09,AU,1730433583
348,taro,-8.3862,115.28,24.95,84,88,0.36,ID,1730433584
349,codrington,-38.2667,141.9667,14.67,52,29,5.19,AU,1730433586
350,brownfield,33.1812,-102.2744,10.22,45,7,3.77,US,1730433587
351,uliastay,47.7417,96.8444,-3.55,58,89,1.54,MN,1730433588
352,mezhdurechenskiy,59.6,65.9333,0.54,80,18,7.1,RU,1730433590
353,kayangel,8.0823,134.7173,28.79,76,76,4.74,PW,1730433591
354,mournies,35.4764,24.0092,17.22,77,40,4.12,GR,1730433593
355,selfoss,63.9331,-20.9971,-4.42,58,51,1.46,IS,1730433594
356,zinder,13.8072,8.9881,22.23,21,39,3.39,NE,1730433595
357,labrador city,52.9463,-66.9114,-2.68,63,100,31.29,CA,1730433597
358,kasongo,-4.45,26.6667,18.98,99,97,1.25,CD,1730433598
359,crane,31.3974,-102.3501,16.88,48,12,6.16,US,1730433600
360,tutayev,57.8853,39.5406,0.36,97,100,2.86,RU,1730433601
361,pacific grove,36.6177,-121.9166,13.38,91,0,5.81,US,1730433602
362,rhinelander,45.6366,-89.4121,1.09,86,100,3.6,US,1730433603
363,hennenman,-27.9765,27.0242,15.6,58,0,3.95,ZA,1730433605
364,yulin,22.6333,110.15,27.09,39,6,4.98,CN,1730433606
365,vorgashor,67.5833,63.95,-1.66,84,95,9.84,RU,1730433607
366,romblon,12.5751,122.2708,28.4,76,100,3.78,PH,1730433609
367,sal'sk,46.4725,41.5428,9.9,81,100,1.38,RU,1730433610
368,ulsteinvik,62.3432,5.8487,8.75,72,100,5.36,NO,1730433612
369,bathsheba,13.2167,-59.5167,26.34,89,20,3.09,BB,1730433614
370,ola,59.5833,151.2833,-6.41,59,92,8.08,RU,1730433615
371,kiffa,16.6166,-11.4045,30.23,16,100,2.63,MR,1730433616
372,xilin hot,43.9667,116.0333,7.74,35,7,2.72,CN,1730433618
373,akrehamn,59.2667,5.1833,11.14,76,75,13.89,NO,1730433619
374,maintirano,-18.0667,44.0167,27.36,78,87,4.68,MG,1730433621
375,akureyri,65.6835,-18.0878,-5.04,63,0,3.6,IS,1730433622
376,blythe,33.6103,-114.5964,15.13,28,0,0.21,US,1730433623
377,cabo san lucas,22.8909,-109.9124,25.42,73,1,1.34,MX,1730433625
378,kijang,35.2442,129.2139,13.85,89,100,3.99,KR,1730433626
379,solone,48.2081,34.8721,7.42,76,100,5.25,UA,1730433627
380,nasiriyah,31.0521,46.261,22.09,68,100,3.0,IQ,1730433629
381,marsh harbour,26.5412,-77.0636,25.97,69,1,9.24,BS,1730433630
382,usogorsk,63.4106,48.6872,-1.12,96,100,2.84,RU,1730433631
383,demre,36.2537,29.9777,16.53,38,1,3.27,TR,1730433633
384,hobyo,5.3505,48.5268,26.43,72,53,3.82,SO,1730433634
385,saint-pierre,-21.3393,55.4781,25.82,50,0,2.57,RE,1730433635
386,myitkyina,25.3833,97.4,29.59,55,3,0.31,MM,1730433639
387,kenora,49.8167,-94.4337,-0.46,55,40,2.06,CA,1730433642
388,pangody,65.85,74.4859,-3.14,93,96,9.44,RU,1730433646
389,dalnegorsk,44.5604,135.5701,15.37,55,53,3.62,RU,1730433382
390,haiku-pauwela,20.9219,-156.3051,24.57,90,57,7.6,US,1730433650
391,puerto aysen,-45.4,-72.7,8.38,95,58,1.48,CL,1730433652
392,zadar,44.1197,15.2422,8.34,100,0,1.54,HR,1730433654
393,chul'man,56.8479,124.9104,-6.03,88,100,0.97,RU,1730433655
394,nemuro,43.3236,145.575,13.04,70,56,4.43,JP,1730433658
395,colonia menno,-22.3667,-59.8167,22.72,87,80,5.64,PY,1730433660
396,tateyama,34.9833,139.8667,23.2,68,99,6.04,JP,1730433662
397,kanodar,24.1,72.3833,29.82,29,0,2.75,IN,1730433663
398,jamaame,0.0697,42.745,26.6,73,14,3.99,SO,1730433665
399,lakatoro,-16.0999,167.4164,27.6,76,69,4.43,VU,1730433666
400,arlington heights,42.0884,-87.9806,7.23,64,100,6.69,US,1730433667
401,choibalsan,48.0667,114.5,4.05,39,13,2.16,MN,1730433669
402,aioun,16.6614,-9.6149,28.5,15,100,3.41,MR,1730433670
403,lihue,21.9789,-159.3672,26.77,75,40,8.75,US,1730432997
404,inirida,3.8653,-67.9239,24.83,85,94,1.57,CO,1730433673
405,brokopondo,4.75,-55.1667,25.21,82,72,4.06,SR,1730433674
406,hervey bay,-25.2986,152.8535,23.39,85,1,12.01,AU,1730433676
407,ness ziona,31.9293,34.7987,18.99,75,20,1.54,IL,1730433677
408,burg auf fehmarn,54.4333,11.2,13.2,83,87,11.27,DE,1730433680
409,amahai,-3.3333,128.9167,30.28,63,43,2.78,ID,1730433685
410,nuuk,64.1835,-51.7216,0.49,100,100,20.58,GL,1730433686
411,taza,34.25,-3.75,14.72,59,0,1.08,MA,1730433687
412,northam,51.0333,-4.2167,11.45,94,1,1.01,GB,1730433691
413,midvagur,62.0511,-7.1939,2.46,69,75,9.26,FO,1730433693
414,sosnogorsk,63.6023,53.8817,0.58,93,100,2.45,RU,1730433695
415,bongaree,-27.0797,153.1586,23.43,83,15,7.31,AU,1730433697
416,sharm el-sheikh,27.8518,34.305,22.08,53,0,2.57,EG,1730433700
417,waingapu,-9.6567,120.2641,31.28,61,100,4.11,ID,1730433707
418,tabas,33.5959,56.9244,19.12,32,51,1.03,IR,1730433710
419,saint-francois,46.4154,3.9054,9.67,100,100,2.06,FR,1730433717
420,tshabong,-26.05,22.45,19.6,26,26,4.11,BW,1730433724
421,kirensk,57.7853,108.1119,0.48,83,89,0.73,RU,1730433726
422,urangan,-25.3,152.9,23.39,85,0,11.88,AU,1730433727
423,broome,42.2506,-75.833,22.16,59,40,4.63,US,1730433728
424,orapa,-21.2833,25.3667,19.94,70,54,6.12,BW,1730433730
425,suva,-18.1416,178.4415,26.71,83,75,3.6,FJ,1730433731
426,dwarka,22.2394,68.9678,30.43,49,0,3.16,IN,1730433732
427,kyshtovka,56.555,76.6271,-0.73,75,12,3.81,RU,1730433734
428,le port,-20.9373,55.2919,25.5,76,87,1.23,RE,1730433735
429,zemio,5.0314,25.1361,20.33,98,100,0.86,CF,1730433736
430,inhambane,-23.865,35.3833,20.99,88,20,0.0,MZ,1730433739
431,zaozersk,69.4005,32.4476,-3.13,80,99,8.58,RU,1730433741
432,macapa,0.0389,-51.0664,27.99,83,75,4.63,BR,1730433745
433,chibougamau,49.9168,-74.3659,-0.21,93,100,3.6,CA,1730433746
434,bay minette,30.883,-87.773,21.48,96,48,1.73,US,1730433747
435,caxito,-8.5785,13.6643,24.41,82,94,1.84,AO,1730433748
436,camocim,-2.9022,-40.8411,24.01,84,47,4.4,BR,1730433749
437,masumbwe,-3.6333,32.1833,20.72,71,96,0.68,TZ,1730433751
438,mana,5.6592,-53.7767,26.38,82,83,4.46,GF,1730433752
439,weiser,44.251,-116.9693,8.11,68,99,1.98,US,1730433754
440,puerto ayacucho,5.6639,-67.6236,25.3,85,92,1.84,VE,1730433756
441,santo antonio,-6.3106,-35.4789,22.18,85,53,3.21,BR,1730433757
442,bridgewater,44.3835,-64.5155,11.73,94,71,0.51,CA,1730433566
443,ouarzazat,30.9189,-6.8934,11.16,46,0,2.06,MA,1730433759
444,pokhara,28.2333,83.9833,20.94,78,44,1.6,NP,1730433761
445,plettenberg bay,-34.0527,23.3716,15.36,88,18,1.12,ZA,1730433762
446,helena valley southeast,46.6153,-111.9216,3.97,64,100,1.79,US,1730433763
447,richards bay,-28.783,32.0377,19.16,82,56,2.21,ZA,1730433765
448,olinda,-8.0089,-34.8553,26.85,74,40,4.12,BR,1730433766
449,montagu,-40.7667,144.9667,13.51,44,4,6.66,AU,1730433767
450,bubaque,11.2833,-15.8333,27.93,77,100,2.31,GW,1730433769
451,hameenlinna,60.996,24.4643,1.18,97,100,3.46,FI,1730433770
452,beau vallon,-20.4189,57.6953,23.13,88,40,3.6,MU,1730433772
453,ebon,4.582,168.6964,28.81,69,6,1.14,MH,1730433773
454,may pen,17.9645,-77.2451,23.3,87,4,2.5,JM,1730433775
455,guatrache,-37.6678,-63.5302,18.21,76,72,3.34,AR,1730433776
456,kununurra,-15.7667,128.7333,35.99,36,3,3.09,AU,1730433778
457,korla,41.7597,86.1469,11.76,46,38,0.79,CN,1730433779
458,riviere-du-loup,47.8304,-69.5342,7.15,100,100,1.54,CA,1730433780
459,la quiaca,-22.1024,-65.593,7.94,65,74,3.56,AR,1730433782
460,jishui,33.7333,115.4,21.38,42,0,6.23,CN,1730433784
461,champagnole,46.7445,5.9135,9.75,60,14,2.01,FR,1730433785
462,malanje,-9.5402,16.341,18.05,97,100,1.81,AO,1730433786
463,amga,60.8953,131.9608,-12.85,84,86,1.32,RU,1730433788
464,keflavik,64.0049,-22.5624,3.24,48,0,6.17,IS,1730433789
465,talladega,33.4359,-86.1058,21.61,83,100,0.0,US,1730433792
466,ishikawa,26.4233,127.8214,31.18,70,75,7.72,JP,1730433794
467,hampton bays,40.869,-72.5176,18.81,68,0,4.63,US,1730433795
468,tolanaro,-25.0319,46.9987,23.04,88,20,2.06,MG,1730433796
469,port hedland,-20.3167,118.5667,34.03,55,0,7.2,AU,1730433724
470,bouarfa,32.53,-1.95,11.65,43,0,1.19,MA,1730433799
471,antofagasta,-23.65,-70.4,16.6,86,45,1.5,CL,1730433702
472,andkhoy,36.9529,65.1238,16.06,43,100,0.95,AF,1730433802
473,da lat,11.9465,108.4419,20.23,92,74,0.15,VN,1730433803
474,chinsali,-10.5414,32.0816,19.74,59,85,3.67,ZM,1730433805
475,maramba,-5.05,38.6167,18.93,88,73,0.38,TZ,1730433806
476,albertina,-22.2008,-46.6158,16.0,87,10,3.13,BR,1730433808
477,mwinilunga,-11.7358,24.4293,17.28,96,100,1.68,ZM,1730433809
478,barika,35.389,5.3658,17.92,66,0,1.83,DZ,1730433811
479,port douglas,-16.4833,145.4667,26.67,56,98,2.9,AU,1730433812
480,kourou,5.1552,-52.6478,25.72,81,16,3.08,GF,1730433813
481,souillac,-20.5167,57.5167,23.21,88,40,3.6,MU,1730433815
482,ust'-ordynskiy,52.805,104.7508,1.88,67,100,0.84,RU,1730433816
483,itumbiara,-18.4192,-49.2153,22.96,76,80,2.39,BR,1730433817
484,kinwat,19.6333,78.2,28.14,59,0,1.14,IN,1730433819
485,homestead meadows north,31.8496,-106.1729,15.85,21,20,1.54,US,1730433820
486,rio gallegos,-51.6226,-69.2181,12.03,62,0,1.03,AR,1730433813
487,gwadar,25.1216,62.3254,27.03,62,0,1.28,PK,1730433826
488,tucurui,-3.7661,-49.6725,25.67,69,95,1.25,BR,1730433829
489,voronovytsya,49.1095,28.6808,8.18,75,96,6.46,UA,1730433830
490,markovo,57.3206,107.0881,0.27,78,100,0.7,RU,1730433832
491,rock springs,41.5875,-109.2029,1.14,74,100,4.12,US,1730433836
492,madingou,-4.1536,13.55,23.25,98,100,0.97,CG,1730433841
493,nagqu,31.5,92.0,2.72,14,9,2.4,CN,1730433842
494,meiganga,6.5167,14.3,17.15,71,70,0.97,CM,1730433843
495,tozeur,33.9197,8.1335,22.22,68,40,6.17,TN,1730433845
496,tostado,-29.232,-61.7692,20.2,95,100,0.94,AR,1730433847
497,reggane,26.7158,0.1714,27.54,21,100,3.26,DZ,1730433865
498,spring valley,36.108,-115.245,15.16,33,0,2.06,US,1730433601
499,bayevo,53.2833,80.7667,1.84,86,100,4.95,RU,1730433868
500,gariadhar,21.5333,71.5833,30.03,34,5,4.03,IN,1730433869
501,coahuayana de hidalgo,18.7,-103.6583,24.69,92,97,1.37,MX,1730433872
502,gulf shores,30.246,-87.7008,25.0,76,40,2.57,US,1730433817
503,cruzeiro do sul,-29.5128,-51.9853,21.42,65,96,2.39,BR,1730433876
504,mar del plata,-38.0023,-57.5575,18.62,94,100,6.71,AR,1730433877
505,guadalupe y calvo,26.1,-106.9667,8.12,51,3,2.01,MX,1730433878
506,khuzdar,27.7384,66.6434,22.49,18,0,2.31,PK,1730433881
507,flying fish cove,-10.4217,105.6791,27.82,83,75,5.66,CX,1730433882
508,alpatovo,43.7028,45.2415,12.2,69,100,2.33,RU,1730433883
509,sao luiz gonzaga,-28.4083,-54.9608,22.06,70,94,3.74,BR,1730433884
510,hilton head island,32.2163,-80.7526,21.11,79,0,0.0,US,1730433885
511,rumoi,43.9344,141.6428,10.03,92,99,2.28,JP,1730433887
512,kardzhali,41.65,25.3667,10.13,72,48,1.47,BG,1730433888
513,zag,46.9441,99.165,-9.2,69,61,0.61,MN,1730433889
514,dashiqiao,40.6373,122.5025,18.87,36,9,6.31,CN,1730433891
515,severobaykal'sk,55.65,109.3167,-1.08,70,95,0.93,RU,1730433894
516,puerto lempira,15.2667,-83.7667,24.78,90,100,0.56,HN,1730433895
517,conception bay south,47.4999,-52.9981,10.86,98,100,4.9,CA,1730433896
518,mossel bay,-34.1831,22.146,16.96,87,94,3.31,ZA,1730433897
519,muynoq,43.7683,59.0214,9.17,68,100,4.09,UZ,1730433898
520,awjilah,29.1081,21.2869,15.75,72,5,3.91,LY,1730433899
521,debre werk',10.6667,38.1667,11.62,92,100,0.58,ET,1730433901
522,antsiranana,-12.2787,49.2917,24.42,73,20,5.14,MG,1730433902
523,kokoda,-8.8785,147.7407,31.86,49,98,0.45,PG,1730433903
524,makurazaki,31.2667,130.3167,23.5,87,100,7.3,JP,1730433904
525,idfu,24.9803,32.8747,17.38,39,0,3.1,EG,1730433905
526,stepnoye,51.4,46.8667,0.66,86,78,4.04,RU,1730433906
527,fabens,31.5023,-106.1586,16.79,19,29,2.86,US,1730433908
528,zeya,53.75,127.2667,0.54,60,95,1.21,RU,1730433909
529,atar,20.5169,-13.0499,27.65,25,100,3.19,MR,1730433910
530,ambilobe,-13.2,49.05,26.65,59,49,1.52,MG,1730433911
531,bafoulabe,13.8065,-10.8321,25.35,37,3,1.03,ML,1730433912
532,longboat key,27.4125,-82.659,23.03,75,0,3.09,US,1730433913
533,dinguiraye,11.3,-10.7167,21.91,68,75,1.03,GN,1730433915
534,newport,51.5877,-2.9984,11.92,93,22,2.35,GB,1730433916
535,touros,-5.1989,-35.4608,25.89,68,69,7.13,BR,1730433917
536,markaz-e hukumat-e darweshan,31.1323,64.1934,23.06,21,17,0.48,AF,1730433918
537,norderney,53.7,7.15,12.76,89,98,2.24,DE,1730433920
538,shibushi,31.4667,131.105,23.24,95,100,1.91,JP,1730433921
539,kasane,-17.8167,25.15,23.05,64,0,3.09,BW,1730433922
540,masterton,-40.9597,175.6575,17.01,65,44,6.93,NZ,1730433923
541,xam nua,20.4197,104.0439,26.62,50,71,2.2,LA,1730433924
542,ketchikan,55.3422,-131.6461,7.1,90,98,1.04,US,1730433925
543,markala,13.7021,-6.0659,26.49,23,26,3.26,ML,1730433927
544,okhotsk,59.3833,143.3,-7.5,59,32,8.6,RU,1730433928
545,polyarnyy,69.1989,33.4478,-2.24,79,100,9.82,RU,1730433929
546,dagua,3.6569,-76.6886,20.09,98,90,1.39,CO,1730433930
547,anaconda,46.1285,-112.9423,-1.02,94,99,1.6,US,1730433931
548,loboc,9.6383,124.0348,29.65,72,50,1.87,PH,1730433932
549,colares,38.7992,-9.4469,16.29,84,71,3.09,PT,1730433934
550,luderitz,-26.6481,15.1594,15.15,81,9,0.4,NA,1730433936
551,itaguai,-22.8522,-43.7753,20.79,94,20,1.03,BR,1730433938
552,reyes,-14.3167,-67.3833,27.31,57,85,0.59,BO,1730433939
553,madang,-5.2246,145.7966,29.24,67,82,3.56,PG,1730433940
554,sharifabad,35.4202,51.7926,14.41,33,0,1.31,IR,1730433942
555,shenjiamen,29.9576,122.298,23.18,98,100,7.85,CN,1730433943
556,prince rupert,54.3161,-130.3201,8.83,92,0,2.57,CA,1730433944
557,nova xavantina,-14.6667,-52.35,22.08,96,96,1.89,BR,1730433945
558,whakatane,-37.9585,176.9854,21.95,75,2,3.13,NZ,1730433946
559,veradale,47.6499,-117.2074,4.82,86,100,0.0,US,1730433947
560,dehdasht,30.7949,50.5646,20.24,44,100,1.73,IR,1730433949
561,buala,-8.145,159.5921,27.63,80,98,1.94,SB,1730433950
562,bel ombre,-4.6167,55.4167,24.91,88,75,4.12,SC,1730433951
563,nicoya,10.1483,-85.452,23.06,99,100,1.07,CR,1730433952
564,puerto armuelles,8.2833,-82.8667,22.83,94,100,6.71,PA,1730433953
565,cosoveni,44.25,23.9333,7.99,93,82,2.57,RO,1730433955
566,kedainiai,55.2883,23.9747,11.75,84,100,10.94,LT,1730433956
567,villa gesell,-37.2639,-56.973,16.83,96,100,6.09,AR,1730433957
568,sola,-13.8833,167.55,26.37,83,100,0.0,VU,1730433958
569,yanchep,-31.55,115.6833,23.92,54,96,4.5,AU,1730433959
570,villaviciosa,43.4813,-5.4357,14.48,90,99,1.92,ES,1730433960
571,palikir - national government center,6.9248,158.1611,31.41,62,40,2.57,FM,1730433962
572,mugia,43.1041,-9.2179,14.39,76,82,2.54,ES,1730433963
573,nhlangano,-27.1167,31.2,15.11,89,95,1.28,SZ,1730433964
574,padang,-0.9492,100.3543,30.03,71,63,2.99,ID,1730433965
575,merizo village,13.2658,144.6691,30.55,86,43,7.1,GU,1730433966
576,port blair,11.6667,92.75,31.02,70,40,1.54,IN,1730433968
577,bodo,67.28,14.405,0.53,97,100,4.12,NO,1730433969
578,kingsford,-33.924,151.2275,23.2,57,40,6.17,AU,1730433970
579,kholmsk,47.0511,142.0569,9.18,58,35,1.4,RU,1730433971
580,pamplona,42.8169,-1.6432,8.95,100,47,1.03,ES,1730433972
581,enriquillo,17.9,-71.2333,23.95,79,20,3.94,DO,1730433973
582,wolmaransstad,-27.1974,25.9831,17.6,62,3,7.14,ZA,1730433975
583,slavyanka,42.8633,131.3847,15.37,65,100,4.7,RU,1730433976
584,kalmunai,7.4167,81.8167,28.33,73,69,0.34,LK,1730433977
585,luba,3.4568,8.5547,26.24,86,100,2.1,GQ,1730433978
586,bojnurd,37.4747,57.329,3.97,87,0,0.0,IR,1730433979
587,hengchun,22.0042,120.7439,27.77,80,99,5.38,TW,1730433980
588,horodyshche,49.2849,31.4451,8.88,73,100,6.73,UA,1730433981
589,redcliff,-19.0333,29.7833,17.46,87,97,2.86,ZW,1730433983
590,kurayoshi,35.4333,133.8167,18.63,97,100,0.78,JP,1730433984
591,the pas,53.8251,-101.2541,-1.99,59,100,3.6,CA,1730433985
